[
  {
    "id": "gugong_01",
    "name": "太和殿",
    "category": "palace",
    "location": "北京故宫",
    "province": "北京市",
    "city": "北京市",
    "lat": 39.91519,
    "lng": 116.40387,
    "heritageLevel": "national",
    "openStatus": "open",
    "mainEraStart": 1420,
    "mainEraEnd": 1912,
    "description": "故宫规模最大、等级最高的建筑，用于举行大典。中国现存最大的木结构大殿。",
    "image": "https://picsum.photos/400/300?random=1",
    "tags": ["皇宫", "明代", "木结构"]
  },
  {
    "id": "gugong_02",
    "name": "乾清宫",
    "category": "palace",
    "location": "北京故宫",
    "province": "北京市",
    "city": "北京市",
    "lat": 39.9155,
    "lng": 116.4037,
    "heritageLevel": "national",
    "openStatus": "open",
    "mainEraStart": 1420,
    "mainEraEnd": 1912,
    "description": "明清皇帝的寝宫，清代雍正后改为处理政务场所。",
    "image": "https://picsum.photos/400/300?random=2",
    "tags": ["皇宫", "寝宫", "清代"]
  },
  {
    "id": "shenyang_01",
    "name": "沈阳故宫大政殿",
    "category": "palace",
    "location": "辽宁沈阳",
    "province": "辽宁省",
    "city": "沈阳市",
    "lat": 41.79674,
    "lng": 123.4455,
    "heritageLevel": "national",
    "openStatus": "open",
    "mainEraStart": 1625,
    "mainEraEnd": 1912,
    "description": "沈阳故宫核心建筑，具有浓郁的满族特色。",
    "image": "https://picsum.photos/400/300?random=3",
    "tags": ["皇宫", "清代", "满族"]
  },
  {
    "id": "zhaozhou_01",
    "name": "赵州桥",
    "category": "bridge",
    "location": "河北赵县",
    "province": "河北省",
    "city": "石家庄市",
    "lat": 37.75496,
    "lng": 114.77738,
    "heritageLevel": "national",
    "openStatus": "open",
    "mainEraStart": 595,
    "mainEraEnd": 605,
    "description": "世界上现存最古老的单孔敞肩石拱桥，建于隋代。",
    "image": "https://picsum.photos/400/300?random=4",
    "tags": ["桥梁", "隋代", "石拱"]
  },
  {
    "id": "lugou_01",
    "name": "卢沟桥",
    "category": "bridge",
    "location": "北京",
    "province": "北京市",
    "city": "北京市",
    "lat": 39.84834,
    "lng": 116.21959,
    "heritageLevel": "national",
    "openStatus": "open",
    "mainEraStart": 1189,
    "mainEraEnd": 1192,
    "description": "北京现存最古老的石造联拱桥，桥上有众多石狮。",
    "image": "https://picsum.photos/400/300?random=5",
    "tags": ["桥梁", "金代", "石狮"]
  },
  {
    "id": "guangji_01",
    "name": "广济桥",
    "category": "bridge",
    "location": "广东潮州",
    "province": "广东省",
    "city": "潮州市",
    "lat": 23.66202,
    "lng": 116.63139,
    "heritageLevel": "national",
    "openStatus": "open",
    "mainEraStart": 1171,
    "mainEraEnd": 1580,
    "description": "中国四大古桥之一，集梁桥、浮桥、拱桥于一体。",
    "image": "https://picsum.photos/400/300?random=6",
    "tags": ["桥梁", "宋代", "启闭式"]
  },
  {
    "id": "zhuozheng_01",
    "name": "拙政园",
    "category": "garden",
    "location": "江苏苏州",
    "province": "江苏省",
    "city": "苏州市",
    "lat": 31.32434,
    "lng": 120.63132,
    "heritageLevel": "national",
    "openStatus": "open",
    "mainEraStart": 1509,
    "mainEraEnd": 1911,
    "description": "中国四大名园之一，明代园林代表。",
    "image": "https://picsum.photos/400/300?random=7",
    "tags": ["园林", "明代", "苏州"]
  },
  {
    "id": "yiheyuan_01",
    "name": "颐和园",
    "category": "garden",
    "location": "北京",
    "province": "北京市",
    "city": "北京市",
    "lat": 39.99991,
    "lng": 116.27554,
    "heritageLevel": "national",
    "openStatus": "open",
    "mainEraStart": 1750,
    "mainEraEnd": 1888,
    "description": "中国现存规模最大、保存最完整的皇家园林。",
    "image": "https://picsum.photos/400/300?random=8",
    "tags": ["园林", "清代", "皇家"]
  },
  {
    "id": "xian_01",
    "name": "西安城墙",
    "category": "defense",
    "location": "陕西西安",
    "province": "陕西省",
    "city": "西安市",
    "lat": 34.25833,
    "lng": 108.94226,
    "heritageLevel": "national",
    "openStatus": "open",
    "mainEraStart": 1370,
    "mainEraEnd": 1378,
    "description": "中国现存规模最大、保存最完整的古代城垣之一。",
    "image": "https://picsum.photos/400/300?random=9",
    "tags": ["城防", "明代", "城墙"]
  },
  {
    "id": "nanjing_01",
    "name": "南京城墙",
    "category": "defense",
    "location": "江苏南京",
    "province": "江苏省",
    "city": "南京市",
    "lat": 32.05575,
    "lng": 118.79542,
    "heritageLevel": "national",
    "openStatus": "open",
    "mainEraStart": 1366,
    "mainEraEnd": 1386,
    "description": "世界上最长、规模最大的古代城垣之一。",
    "image": "https://picsum.photos/400/300?random=10",
    "tags": ["城防", "明代", "最长"]
  },
  {
    "id": "tulou_01",
    "name": "福建土楼",
    "category": "residence",
    "location": "福建龙岩",
    "province": "福建省",
    "city": "龙岩市",
    "lat": 24.65733,
    "lng": 116.99676,
    "heritageLevel": "national",
    "openStatus": "open",
    "mainEraStart": 1200,
    "mainEraEnd": 1900,
    "description": "客家人聚族而居的大型夯土民居，被誉为东方古城堡。",
    "image": "https://picsum.photos/400/300?random=11",
    "tags": ["民居", "客家", "圆形"]
  },
  {
    "id": "qiaojia_01",
    "name": "乔家大院",
    "category": "residence",
    "location": "山西祁县",
    "province": "山西省",
    "city": "晋中市",
    "lat": 37.35779,
    "lng": 112.3419,
    "heritageLevel": "national",
    "openStatus": "open",
    "mainEraStart": 1756,
    "mainEraEnd": 1900,
    "description": "清代晋商民宅代表，有北方民居建筑明珠之称。",
    "image": "https://picsum.photos/400/300?random=12",
    "tags": ["民居", "清代", "晋商"]
  },
  {
    "id": "pingyao_01",
    "name": "平遥古城",
    "category": "residence",
    "location": "山西平遥",
    "province": "山西省",
    "city": "晋中市",
    "lat": 37.18937,
    "lng": 112.17514,
    "heritageLevel": "national",
    "openStatus": "open",
    "mainEraStart": 1370,
    "mainEraEnd": 1900,
    "description": "中国保存最完整的明清古县城之一。",
    "image": "https://picsum.photos/400/300?random=13",
    "tags": ["古城", "明清", "世界遗产"]
  },
  {
    "id": "yueyang_01",
    "name": "岳阳楼",
    "category": "tower",
    "location": "湖南岳阳",
    "province": "湖南省",
    "city": "岳阳市",
    "lat": 29.37859,
    "lng": 113.12206,
    "heritageLevel": "national",
    "openStatus": "open",
    "mainEraStart": 220,
    "mainEraEnd": 1984,
    "description": "江南三大名楼之一，因岳阳楼记闻名。",
    "image": "https://picsum.photos/400/300?random=14",
    "tags": ["楼阁", "宋代", "名楼"]
  },
  {
    "id": "kongmiao_01",
    "name": "曲阜孔庙",
    "category": "tower",
    "location": "山东曲阜",
    "province": "山东省",
    "city": "济宁市",
    "lat": 35.60191,
    "lng": 116.98949,
    "heritageLevel": "national",
    "openStatus": "open",
    "mainEraStart": -478,
    "mainEraEnd": 1911,
    "description": "祭祀孔子的庙宇建筑群，规模宏大。",
    "image": "https://picsum.photos/400/300?random=15",
    "tags": ["庙宇", "祭祀", "孔子"]
  },
  {
    "id": "dujiangyan_01",
    "name": "都江堰",
    "category": "water",
    "location": "四川成都",
    "province": "四川省",
    "city": "成都市",
    "lat": 30.99832,
    "lng": 103.60435,
    "heritageLevel": "national",
    "openStatus": "open",
    "mainEraStart": -256,
    "mainEraEnd": -251,
    "description": "世界最古老的无坝引水水利工程之一，至今仍在使用。",
    "image": "https://picsum.photos/400/300?random=16",
    "tags": ["水利", "战国", "李冰"]
  },
  {
    "id": "kanerjing_01",
    "name": "坎儿井",
    "category": "water",
    "location": "新疆吐鲁番",
    "province": "新疆维吾尔自治区",
    "city": "吐鲁番市",
    "lat": 42.94769,
    "lng": 89.18408,
    "heritageLevel": "national",
    "openStatus": "open",
    "mainEraStart": 1200,
    "mainEraEnd": 1900,
    "description": "干旱地区地下水利工程，与长城、大运河齐名。",
    "image": "https://picsum.photos/400/300?random=17",
    "tags": ["水利", "地下", "新疆"]
  }
]
